"latitude","longitude","school_name","ward","grades","pk3_17","pk4_17","kg_17","g1_17","g2_17","g3_17","g4_17","g5_17","g6_17","g7_17","g8_17","g9_17","g10_17","g11_17","g12_17","night_students_17","non_cert_17","data_year17","pk3_18","pk4_18","kg_18","g1_18","g2_18","g3_18","g4_18","g5_18","g6_18","g7_18","g8_18","g9_18","g10_18","g11_18","g12_18","night_students_18","non_cert_18","sy2018","pk3_19","pk4_19","kg_19","g1_19","g2_19","g3_19","g4_19","g5_19","g6_19","g7_19","g8_19","g9_19","g10_19","g11_19","g12_19","night_students_19","non_cert_19","sy2019","pk3_20","pk4_20","kg_20","g1_20","g2_20","g3_20","g4_20","g5_20","g6_20","g7_20","g8_20","g9_20","g10_20","g11_20","g12_20","night_students_20","non_cert_20","sy2020","pk3_21","pk4_21","kg_21","g1_21","g2_21","g3_21","g4_21","g5_21","g6_21","g7_21","g8_21","g9_21","g10_21","g11_21","g12_21","night_students_21","non_cert_21","sy2021"
38.83930035,-77.00140525,"Ballou STAY High School","8","HS",0,0,0,0,0,0,0,0,0,0,0,88,45,71,67,224,0,"2017",NULL,NULL,NULL,NULL,NULL,NULL,NULL,NULL,NULL,NULL,NULL,74,66,66,116,202,NULL,"2018",NULL,NULL,NULL,NULL,NULL,NULL,NULL,NULL,NULL,NULL,NULL,89,57,52,68,254,3,"2019",NULL,NULL,NULL,NULL,NULL,NULL,NULL,NULL,NULL,NULL,NULL,89,57,52,68,254,3,"2020",0,0,0,0,0,0,0,0,0,0,0,80,56,63,43,216,0,"2021"
38.83927528,-77.00134088,"Ballou STAY High School","8","HS",0,0,0,0,0,0,0,0,0,0,0,88,45,71,67,224,0,"2017",NULL,NULL,NULL,NULL,NULL,NULL,NULL,NULL,NULL,NULL,NULL,74,66,66,116,202,NULL,"2018",NULL,NULL,NULL,NULL,NULL,NULL,NULL,NULL,NULL,NULL,NULL,89,57,52,68,254,3,"2019",NULL,NULL,NULL,NULL,NULL,NULL,NULL,NULL,NULL,NULL,NULL,89,57,52,68,254,3,"2020",0,0,0,0,0,0,0,0,0,0,0,80,56,63,43,216,0,"2021"
38.94328317,-77.0291906,"Roosevelt STAY High School","4","HS",0,0,0,0,0,0,0,0,0,0,0,125,60,79,67,184,0,"2017",NULL,NULL,NULL,NULL,NULL,NULL,NULL,NULL,NULL,NULL,NULL,102,136,103,85,222,NULL,"2018",NULL,NULL,NULL,NULL,NULL,NULL,NULL,NULL,NULL,NULL,NULL,139,120,121,89,165,0,"2019",NULL,NULL,NULL,NULL,NULL,NULL,NULL,NULL,NULL,NULL,NULL,139,120,121,89,165,0,"2020",0,0,0,0,0,0,0,0,0,0,0,148,97,79,76,184,0,"2021"
38.94328317,-77.0291906,"Roosevelt STAY High School","4","HS",0,0,0,0,0,0,0,0,0,0,0,125,60,79,67,184,0,"2017",NULL,NULL,NULL,NULL,NULL,NULL,NULL,NULL,NULL,NULL,NULL,102,136,103,85,222,NULL,"2018",NULL,NULL,NULL,NULL,NULL,NULL,NULL,NULL,NULL,NULL,NULL,139,120,121,89,165,0,"2019",NULL,NULL,NULL,NULL,NULL,NULL,NULL,NULL,NULL,NULL,NULL,139,120,121,89,165,0,"2020",0,0,0,0,0,0,0,0,0,0,0,148,97,79,76,184,0,"2021"
38.89559278,-76.95910647,"River Terrace Education Campus","7","Adult",0,0,0,0,0,7,4,9,7,13,7,0,0,0,0,0,90,"2017",NULL,NULL,NULL,NULL,NULL,2,6,5,9,8,13,NULL,NULL,NULL,NULL,NULL,88,"2018",NULL,NULL,NULL,NULL,NULL,0,2,4,7,5,7,9,0,0,0,2,96,"2019",NULL,NULL,NULL,NULL,NULL,0,2,4,7,5,7,9,0,0,0,2,96,"2020",0,0,0,0,0,4,0,1,5,6,2,5,0,0,0,0,92,"2021"
38.89743637,-76.93374432,"Aiton Elementary School","7","ES",31,43,39,33,20,21,30,26,0,0,0,0,0,0,0,0,0,"2017",39,32,41,33,26,19,30,24,NULL,NULL,NULL,NULL,NULL,NULL,NULL,NULL,NULL,"2018",13,24,40,31,35,24,18,22,NULL,NULL,NULL,NULL,NULL,NULL,NULL,NULL,NULL,"2019",13,24,40,31,35,24,18,22,NULL,NULL,NULL,NULL,NULL,NULL,NULL,NULL,NULL,"2020",10,23,27,34,27,28,22,21,0,0,0,0,0,0,0,0,0,"2021"
38.88103368,-77.01817846,"Amidon-Bowen Elementary School","6","ES",25,40,37,45,50,49,46,59,0,0,0,0,0,0,0,0,0,"2017",39,36,47,36,33,45,51,52,NULL,NULL,NULL,NULL,NULL,NULL,NULL,NULL,NULL,"2018",18,40,47,43,39,44,41,43,NULL,NULL,NULL,NULL,NULL,NULL,NULL,NULL,NULL,"2019",18,40,47,43,39,44,41,43,NULL,NULL,NULL,NULL,NULL,NULL,NULL,NULL,NULL,"2020",32,31,47,50,42,44,50,39,0,0,0,0,0,0,0,0,0,"2021"
38.8708087,-76.98293357,"Anacostia High School","8","HS",0,0,0,0,0,0,0,0,0,0,0,89,91,83,95,0,21,"2017",NULL,NULL,NULL,NULL,NULL,NULL,NULL,NULL,NULL,NULL,NULL,81,59,71,61,NULL,24,"2018",NULL,NULL,NULL,NULL,NULL,NULL,NULL,NULL,NULL,NULL,NULL,158,62,51,30,NULL,25,"2019",NULL,NULL,NULL,NULL,NULL,NULL,NULL,NULL,NULL,NULL,NULL,158,62,51,30,NULL,25,"2020",0,0,0,0,0,0,0,0,0,0,0,141,80,44,38,0,18,"2021"
38.93594418,-77.04060035,"Bancroft Elementary School","1","ES",43,57,80,78,68,78,67,73,0,0,0,0,0,0,0,0,0,"2017",46,59,91,80,79,68,78,66,NULL,NULL,NULL,NULL,NULL,NULL,NULL,NULL,NULL,"2018",45,59,101,97,94,80,80,71,NULL,NULL,NULL,NULL,NULL,NULL,NULL,NULL,NULL,"2019",45,59,101,97,94,80,80,71,NULL,NULL,NULL,NULL,NULL,NULL,NULL,NULL,NULL,"2020",43,63,104,109,102,93,88,74,0,0,0,0,0,0,0,0,0,"2021"
38.94812776,-77.01847766,"Barnard Elementary School","4","ES",61,84,90,80,88,79,86,74,0,0,0,0,0,0,0,0,0,"2017",65,83,96,82,65,76,80,73,NULL,NULL,NULL,NULL,NULL,NULL,NULL,NULL,NULL,"2018",62,77,73,78,95,83,73,76,NULL,NULL,NULL,NULL,NULL,NULL,NULL,NULL,NULL,"2019",62,77,73,78,95,83,73,76,NULL,NULL,NULL,NULL,NULL,NULL,NULL,NULL,NULL,"2020",57,76,82,67,73,92,77,72,0,0,0,0,0,0,0,0,0,"2021"
38.86565926,-76.95545132,"Beers Elementary School","7","ES",42,55,75,72,68,49,78,45,0,0,0,0,0,0,0,0,0,"2017",40,50,53,76,70,78,49,73,NULL,NULL,NULL,NULL,NULL,NULL,NULL,NULL,NULL,"2018",36,43,59,55,55,57,83,68,NULL,NULL,NULL,NULL,NULL,NULL,NULL,NULL,NULL,"2019",36,43,59,55,55,57,83,68,NULL,NULL,NULL,NULL,NULL,NULL,NULL,NULL,NULL,"2020",28,48,47,53,53,45,48,62,0,0,0,0,0,0,0,0,0,"2021"
38.91246728,-77.02414148,"Benjamin Banneker High School","6","HS",0,0,0,0,0,0,0,0,0,0,0,142,115,121,104,0,0,"2017",NULL,NULL,NULL,NULL,NULL,NULL,NULL,NULL,NULL,NULL,NULL,151,125,97,109,NULL,NULL,"2018",NULL,NULL,NULL,NULL,NULL,NULL,NULL,NULL,NULL,NULL,NULL,161,157,118,113,NULL,NULL,"2019",NULL,NULL,NULL,NULL,NULL,NULL,NULL,NULL,NULL,NULL,NULL,161,157,118,113,NULL,NULL,"2020",0,0,0,0,0,0,0,0,0,0,0,145,139,140,113,0,0,"2021"
38.96168305,-77.03000351,"Brent Elementary School","6","ES",32,34,72,62,64,64,53,44,0,0,0,0,0,0,0,0,0,"2017",32,34,67,80,72,65,57,25,NULL,NULL,NULL,NULL,NULL,NULL,NULL,NULL,NULL,"2018",32,32,72,69,66,74,54,34,NULL,NULL,NULL,NULL,NULL,NULL,NULL,NULL,NULL,"2019",32,32,72,69,66,74,54,34,NULL,NULL,NULL,NULL,NULL,NULL,NULL,NULL,NULL,"2020",29,35,65,64,69,64,71,34,0,0,0,0,0,0,0,0,0,"2021"
38.96092428,-77.03012409,"Brightwood Elementary School","4","ES",41,49,81,88,76,74,77,85,49,61,56,0,0,0,0,0,0,"2017",38,68,59,81,96,70,73,85,77,51,59,NULL,NULL,NULL,NULL,NULL,NULL,"2018",40,60,67,82,61,89,90,60,NULL,NULL,84,NULL,NULL,NULL,NULL,NULL,NULL,"2019",40,60,67,82,61,89,90,60,NULL,NULL,84,NULL,NULL,NULL,NULL,NULL,NULL,"2020",33,71,94,87,80,62,84,86,0,0,0,0,0,0,0,0,0,"2021"
38.90366262,-76.97077283,"Brookland Middle School","5","MS",0,0,0,0,0,0,0,0,66,75,97,0,0,0,0,0,0,"2017",NULL,NULL,NULL,NULL,NULL,NULL,NULL,NULL,97,88,85,NULL,NULL,NULL,NULL,NULL,NULL,"2018",NULL,NULL,NULL,NULL,NULL,NULL,NULL,NULL,106,111,128,NULL,NULL,NULL,NULL,NULL,NULL,"2019",NULL,NULL,NULL,NULL,NULL,NULL,NULL,NULL,106,111,128,NULL,NULL,NULL,NULL,NULL,NULL,"2020",0,0,0,0,0,0,0,0,103,112,112,0,0,0,0,0,0,"2021"
38.90279971,-76.97066464,"Browne Education Campus","5","Mixed Campus",25,33,39,38,31,36,27,20,34,21,21,0,0,0,0,0,0,"2017",28,37,43,44,39,34,28,33,26,39,20,NULL,NULL,NULL,NULL,NULL,NULL,"2018",20,41,34,45,44,36,34,34,32,52,26,NULL,NULL,NULL,NULL,NULL,NULL,"2019",20,41,34,45,44,36,34,34,32,52,26,NULL,NULL,NULL,NULL,NULL,NULL,"2020",22,36,47,34,37,32,35,38,37,37,59,0,0,0,0,0,0,"2021"
38.94292734,-76.98442065,"Bruce-Monroe Elementary School @ Park View","1","ES",44,50,71,70,62,59,55,62,0,0,0,0,0,0,0,0,0,"2017",43,54,63,64,68,59,50,50,NULL,NULL,NULL,NULL,NULL,NULL,NULL,NULL,NULL,"2018",47,48,65,72,59,64,68,46,NULL,NULL,NULL,NULL,NULL,NULL,NULL,NULL,NULL,"2019",47,48,65,72,59,64,68,46,NULL,NULL,NULL,NULL,NULL,NULL,NULL,NULL,NULL,"2020",39,42,54,60,65,48,57,60,0,0,0,0,0,0,0,0,0,"2021"
38.93427209,-76.97920681,"Bunker Hill Elementary School","5","ES",22,33,27,23,23,28,21,23,0,0,0,0,0,0,0,0,0,"2017",23,36,37,31,23,19,33,19,NULL,NULL,NULL,NULL,NULL,NULL,NULL,NULL,NULL,"2018",21,38,24,30,26,26,20,24,NULL,NULL,NULL,NULL,NULL,NULL,NULL,NULL,NULL,"2019",21,38,24,30,26,26,20,24,NULL,NULL,NULL,NULL,NULL,NULL,NULL,NULL,NULL,"2020",22,18,34,22,29,23,24,16,0,0,0,0,0,0,0,0,0,"2021"
38.93353676,-76.97848383,"Burroughs Elementary School","5","ES",37,33,42,47,32,42,25,24,0,0,0,0,0,0,0,0,0,"2017",37,39,37,30,35,33,41,21,NULL,NULL,NULL,NULL,NULL,NULL,NULL,NULL,NULL,"2018",29,38,40,26,33,30,36,35,NULL,NULL,NULL,NULL,NULL,NULL,NULL,NULL,NULL,"2019",29,38,40,26,33,30,36,35,NULL,NULL,NULL,NULL,NULL,NULL,NULL,NULL,NULL,"2020",39,29,38,34,19,29,26,27,0,0,0,0,0,0,0,0,0,"2021"
38.884304,-76.92590874,"Burrville Elementary School","7","ES",35,46,49,43,32,41,34,20,0,0,0,0,0,0,0,0,0,"2017",40,56,38,40,32,25,34,30,NULL,NULL,NULL,NULL,NULL,NULL,NULL,NULL,NULL,"2018",23,39,47,31,37,33,36,24,NULL,NULL,NULL,NULL,NULL,NULL,NULL,NULL,NULL,"2019",23,39,47,31,37,33,36,24,NULL,NULL,NULL,NULL,NULL,NULL,NULL,NULL,NULL,"2020",26,32,35,39,29,28,33,34,0,0,0,0,0,0,0,0,0,"2021"
38.88375486,-76.92631932,"C.W. Harris Elementary School","7","ES",18,37,33,38,40,24,42,46,0,0,0,0,0,0,0,0,0,"2017",15,29,36,30,26,35,23,38,NULL,NULL,NULL,NULL,NULL,NULL,NULL,NULL,NULL,"2018",15,30,30,36,30,30,23,38,1,NULL,NULL,NULL,NULL,NULL,NULL,NULL,NULL,"2019",15,30,30,36,30,30,23,38,1,NULL,NULL,NULL,NULL,NULL,NULL,NULL,NULL,"2020",17,25,37,25,34,36,33,24,0,0,0,0,0,0,0,0,0,"2021"
38.89876957,-77.00259626,"Capitol Hill Montessori School @ Logan","6","Mixed Campus",54,53,50,41,41,34,29,20,6,17,20,0,0,0,0,0,0,"2017",57,53,32,35,33,31,27,21,34,16,23,NULL,NULL,NULL,NULL,NULL,NULL,"2018",53,49,37,37,28,30,25,22,21,26,26,NULL,NULL,NULL,NULL,NULL,NULL,"2019",53,49,37,37,28,30,25,22,21,26,26,NULL,NULL,NULL,NULL,NULL,NULL,"2020",52,56,37,40,38,30,33,20,29,19,29,0,0,0,0,0,0,"2021"
38.91565714,-77.02236216,"Cardozo Education Campus","1","HS",0,0,0,0,0,0,0,0,46,46,55,136,188,152,141,0,24,"2017",NULL,NULL,NULL,NULL,NULL,NULL,NULL,NULL,42,61,62,135,124,170,126,NULL,26,"2018",NULL,NULL,NULL,NULL,NULL,NULL,NULL,NULL,55,78,53,136,101,95,81,NULL,22,"2019",NULL,NULL,NULL,NULL,NULL,NULL,NULL,NULL,55,78,53,136,101,95,81,NULL,22,"2020",0,0,0,0,0,0,0,0,43,60,76,165,107,80,71,0,22,"2021"
38.93025223,-77.03558528,"Cleveland Elementary School","1","ES",33,46,37,38,44,43,45,31,0,0,0,0,0,0,0,0,0,"2017",29,44,42,37,35,40,39,38,NULL,NULL,NULL,NULL,NULL,NULL,NULL,NULL,NULL,"2018",29,39,45,37,38,34,37,38,NULL,NULL,NULL,NULL,NULL,NULL,NULL,NULL,NULL,"2019",29,39,45,37,38,34,37,38,NULL,NULL,NULL,NULL,NULL,NULL,NULL,NULL,NULL,"2020",31,32,32,41,36,35,33,32,0,0,0,0,0,0,0,0,0,"2021"
38.93408384,-77.03507179,"Columbia Heights Education Campus","1","HS",0,0,0,0,0,0,0,0,103,88,91,234,245,235,238,0,6,"2017",NULL,NULL,NULL,NULL,NULL,NULL,NULL,NULL,145,119,102,305,211,212,220,1,5,"2018",NULL,NULL,NULL,NULL,NULL,NULL,NULL,NULL,145,193,178,320,244,205,188,NULL,4,"2019",NULL,NULL,NULL,NULL,NULL,NULL,NULL,NULL,145,193,178,320,244,205,188,NULL,4,"2020",0,0,0,0,0,0,0,0,169,149,192,355,271,208,206,0,4,"2021"
38.95432783,-77.07430976,"Coolidge High School","4","HS",0,0,0,0,0,0,0,0,0,0,0,108,57,76,60,0,9,"2017",NULL,NULL,NULL,NULL,NULL,NULL,NULL,NULL,NULL,NULL,NULL,95,61,73,84,NULL,14,"2018",NULL,NULL,NULL,NULL,NULL,NULL,NULL,NULL,NULL,NULL,NULL,220,195,74,62,NULL,10,"2019",NULL,NULL,NULL,NULL,NULL,NULL,NULL,NULL,NULL,NULL,NULL,220,195,74,62,NULL,10,"2020",0,0,0,0,0,0,0,0,0,0,0,294,190,177,64,0,15,"2021"
38.95289354,-77.07507776,"Deal Middle School","3","MS",0,0,0,0,0,0,0,0,484,537,454,0,0,0,0,0,0,"2017",NULL,NULL,NULL,NULL,NULL,NULL,NULL,NULL,478,504,525,NULL,NULL,NULL,NULL,NULL,NULL,"2018",NULL,NULL,NULL,NULL,NULL,NULL,NULL,NULL,499,469,495,NULL,NULL,NULL,NULL,NULL,NULL,"2019",NULL,NULL,NULL,NULL,NULL,NULL,NULL,NULL,499,469,495,NULL,NULL,NULL,NULL,NULL,NULL,"2020",0,0,0,0,0,0,0,0,447,480,469,0,0,0,0,0,0,"2021"
38.95953258,-77.03338385,"Dorothy I. Height Elementary School","4","ES",64,79,61,61,57,50,64,43,0,0,0,0,0,0,0,0,0,"2017",67,80,62,57,56,54,46,58,NULL,NULL,NULL,NULL,NULL,NULL,NULL,NULL,NULL,"2018",43,61,69,58,63,50,48,45,NULL,NULL,NULL,NULL,NULL,NULL,NULL,NULL,NULL,"2019",43,61,69,58,63,50,48,45,NULL,NULL,NULL,NULL,NULL,NULL,NULL,NULL,NULL,"2020",60,39,55,62,58,57,50,43,0,0,0,0,0,0,0,0,0,"2021"
38.90636296,-76.91948925,"Drew Elementary School","7","ES",26,19,41,32,27,44,42,41,0,0,0,0,0,0,0,0,0,"2017",22,27,22,31,33,32,34,35,NULL,NULL,NULL,NULL,NULL,NULL,NULL,NULL,NULL,"2018",20,27,28,31,26,26,36,29,NULL,NULL,NULL,NULL,NULL,NULL,NULL,NULL,NULL,"2019",20,27,28,31,26,26,36,29,NULL,NULL,NULL,NULL,NULL,NULL,NULL,NULL,NULL,"2020",15,29,26,24,23,21,21,32,0,0,0,0,0,0,0,0,0,"2021"
38.91308014,-77.07044602,"Duke Ellington School of the Arts","2","HS",0,0,0,0,0,0,0,0,0,0,0,177,150,122,117,0,0,"2017",NULL,NULL,NULL,NULL,NULL,NULL,NULL,NULL,NULL,NULL,NULL,160,143,132,110,NULL,NULL,"2018",NULL,NULL,NULL,NULL,NULL,NULL,NULL,NULL,NULL,NULL,NULL,162,170,143,116,NULL,0,"2019",NULL,NULL,NULL,NULL,NULL,NULL,NULL,NULL,NULL,NULL,NULL,162,170,143,116,NULL,0,"2020",0,0,0,0,0,0,0,0,0,0,0,156,151,133,139,0,0,"2021"
38.89099243,-76.97944051,"Dunbar High School","5","HS",0,0,0,0,0,0,0,0,0,0,0,202,128,129,148,0,10,"2017",NULL,NULL,NULL,NULL,NULL,NULL,NULL,NULL,NULL,NULL,NULL,192,214,139,111,NULL,11,"2018",NULL,NULL,NULL,NULL,NULL,NULL,NULL,NULL,NULL,NULL,1,213,172,113,151,NULL,16,"2019",NULL,NULL,NULL,NULL,NULL,NULL,NULL,NULL,NULL,NULL,1,213,172,113,151,NULL,16,"2020",0,0,0,0,0,0,0,0,0,0,0,264,208,143,95,0,18,"2021"
38.89098391,-76.97915486,"Eastern High School","6","HS",0,0,0,0,0,0,0,0,0,0,0,186,199,166,196,0,22,"2017",NULL,NULL,NULL,NULL,NULL,NULL,NULL,NULL,NULL,NULL,NULL,240,156,170,156,NULL,22,"2018",NULL,NULL,NULL,NULL,NULL,NULL,NULL,NULL,NULL,NULL,NULL,274,186,142,104,NULL,29,"2019",NULL,NULL,NULL,NULL,NULL,NULL,NULL,NULL,NULL,NULL,NULL,274,186,142,104,NULL,29,"2020",0,0,0,0,0,0,0,0,0,0,0,328,181,122,96,0,39,"2021"
38.93295064,-77.06602606,"Eaton Elementary School","3","ES",0,36,73,75,73,78,73,68,0,0,0,0,0,0,0,0,0,"2017",NULL,36,80,76,76,66,79,61,NULL,NULL,NULL,NULL,NULL,NULL,NULL,NULL,NULL,"2018",NULL,40,59,58,69,64,71,68,NULL,NULL,NULL,NULL,NULL,NULL,NULL,NULL,NULL,"2019",NULL,40,59,58,69,64,71,68,NULL,NULL,NULL,NULL,NULL,NULL,NULL,NULL,NULL,"2020",0,39,50,71,57,74,65,67,0,0,0,0,0,0,0,0,0,"2021"
38.89300974,-76.97963355,"Eliot-Hine Middle School","6","MS",0,0,0,0,0,0,0,0,71,69,63,0,0,0,0,0,0,"2017",NULL,NULL,NULL,NULL,NULL,NULL,NULL,NULL,101,65,66,NULL,NULL,NULL,NULL,NULL,NULL,"2018",NULL,NULL,NULL,NULL,NULL,NULL,NULL,NULL,76,107,83,NULL,NULL,NULL,NULL,NULL,NULL,"2019",NULL,NULL,NULL,NULL,NULL,NULL,NULL,NULL,76,107,83,NULL,NULL,NULL,NULL,NULL,NULL,"2020",0,0,0,0,0,0,0,0,120,85,112,0,0,0,0,0,0,"2021"
38.85182425,-76.97028143,"Garfield Elementary School","8","ES",25,31,32,34,56,38,44,41,0,0,0,0,0,0,0,0,0,"2017",22,27,31,43,30,56,41,41,NULL,NULL,NULL,NULL,NULL,NULL,NULL,NULL,NULL,"2018",22,24,31,32,31,32,37,54,NULL,NULL,NULL,NULL,NULL,NULL,NULL,NULL,NULL,"2019",22,24,31,32,31,32,37,54,NULL,NULL,NULL,NULL,NULL,NULL,NULL,NULL,NULL,"2020",15,30,34,36,29,28,36,37,0,0,0,0,0,0,0,0,0,"2021"
38.92466915,-77.03868272,"Garrison Elementary School","2","ES",37,44,34,34,16,35,26,24,0,0,0,0,0,0,0,0,0,"2017",45,34,45,35,38,21,34,25,NULL,NULL,NULL,NULL,NULL,NULL,NULL,NULL,NULL,"2018",36,50,49,45,38,39,34,28,NULL,NULL,NULL,NULL,NULL,NULL,NULL,NULL,NULL,"2019",36,50,49,45,38,39,34,28,NULL,NULL,NULL,NULL,NULL,NULL,NULL,NULL,NULL,"2020",38,41,56,51,46,31,39,29,0,0,0,0,0,0,0,0,0,"2021"
38.92419896,-77.03865186,"H.D. Cooke Elementary School","1","ES",32,55,62,53,51,55,47,49,0,0,0,0,0,0,0,0,0,"2017",28,56,57,59,49,49,48,41,NULL,NULL,NULL,NULL,NULL,NULL,NULL,NULL,NULL,"2018",22,48,51,58,54,55,45,50,NULL,NULL,NULL,NULL,NULL,NULL,NULL,NULL,NULL,"2019",22,48,51,58,54,55,45,50,NULL,NULL,NULL,NULL,NULL,NULL,NULL,NULL,NULL,"2020",31,42,47,46,50,50,54,46,0,0,0,0,0,0,0,0,0,"2021"
38.89944406,-76.92120889,"H.D. Woodson High School","7","HS",0,0,0,0,0,0,0,0,0,0,0,86,112,139,132,0,19,"2017",NULL,NULL,NULL,NULL,NULL,NULL,NULL,NULL,NULL,NULL,NULL,135,73,98,131,NULL,18,"2018",NULL,NULL,NULL,NULL,NULL,NULL,NULL,NULL,NULL,NULL,1,144,122,83,71,NULL,13,"2019",NULL,NULL,NULL,NULL,NULL,NULL,NULL,NULL,NULL,NULL,1,144,122,83,71,NULL,13,"2020",0,0,0,0,0,0,0,0,0,0,0,188,104,98,70,0,18,"2021"
38.91620207,-77.06814301,"Hardy Middle School","2","MS",0,0,0,0,0,0,0,0,128,142,122,0,0,0,0,0,0,"2017",NULL,NULL,NULL,NULL,NULL,NULL,NULL,NULL,163,149,139,NULL,NULL,NULL,NULL,NULL,NULL,"2018",NULL,NULL,NULL,NULL,NULL,NULL,NULL,NULL,196,148,156,NULL,NULL,NULL,NULL,NULL,NULL,"2019",NULL,NULL,NULL,NULL,NULL,NULL,NULL,NULL,196,148,156,NULL,NULL,NULL,NULL,NULL,NULL,"2020",0,0,0,0,0,0,0,0,182,186,163,0,0,0,0,0,0,"2021"
38.83821201,-76.99720829,"Hart Middle School","8","MS",0,0,0,0,0,0,0,0,116,117,104,0,0,0,0,0,0,"2017",NULL,NULL,NULL,NULL,NULL,NULL,NULL,NULL,123,119,115,NULL,NULL,NULL,NULL,NULL,NULL,"2018",NULL,NULL,NULL,NULL,NULL,NULL,NULL,NULL,165,137,168,NULL,NULL,NULL,NULL,NULL,NULL,"2019",NULL,NULL,NULL,NULL,NULL,NULL,NULL,NULL,165,137,168,NULL,NULL,NULL,NULL,NULL,NULL,"2020",0,0,0,0,0,0,0,0,134,154,133,0,0,0,0,0,0,"2021"
38.94142366,-77.07169958,"Hearst Elementary School","3","ES",0,46,43,51,49,43,41,39,0,0,0,0,0,0,0,0,0,"2017",NULL,43,53,52,49,53,42,39,NULL,NULL,NULL,NULL,NULL,NULL,NULL,NULL,NULL,"2018",2,40,59,47,47,52,47,52,NULL,NULL,NULL,NULL,NULL,NULL,NULL,NULL,NULL,"2019",2,40,59,47,47,52,47,52,NULL,NULL,NULL,NULL,NULL,NULL,NULL,NULL,NULL,"2020",0,41,47,56,48,48,47,47,0,0,0,0,0,0,0,0,0,"2021"
38.82944468,-76.99959101,"Hendley Elementary School","8","ES",25,32,54,53,47,58,54,56,0,0,0,0,0,0,0,0,0,"2017",30,34,47,60,42,46,58,49,NULL,NULL,NULL,NULL,NULL,NULL,NULL,NULL,NULL,"2018",23,26,46,42,30,55,42,43,NULL,NULL,NULL,NULL,NULL,NULL,NULL,NULL,NULL,"2019",23,26,46,42,30,55,42,43,NULL,NULL,NULL,NULL,NULL,NULL,NULL,NULL,NULL,"2020",14,23,38,37,38,34,55,39,0,0,0,0,0,0,0,0,0,"2021"
38.90633678,-76.92991762,"Houston Elementary School","7","ES",31,38,33,33,32,30,36,36,0,0,0,0,0,0,0,0,0,"2017",34,32,36,40,32,34,27,42,NULL,NULL,NULL,NULL,NULL,NULL,NULL,NULL,NULL,"2018",20,44,44,29,34,37,32,29,NULL,NULL,NULL,NULL,NULL,NULL,NULL,NULL,NULL,"2019",20,44,44,29,34,37,32,29,NULL,NULL,NULL,NULL,NULL,NULL,NULL,NULL,NULL,"2020",30,34,46,38,27,30,33,30,0,0,0,0,0,0,0,0,0,"2021"
38.90885434,-77.06512471,"Hyde-Addison Elementary School","2","ES",16,43,69,43,46,38,35,30,0,0,0,0,0,0,0,0,0,"2017",15,39,65,66,44,50,40,33,NULL,NULL,NULL,NULL,NULL,NULL,NULL,NULL,NULL,"2018",15,39,60,65,66,66,39,36,NULL,NULL,NULL,NULL,NULL,NULL,NULL,NULL,NULL,"2019",15,39,60,65,66,66,39,36,NULL,NULL,NULL,NULL,NULL,NULL,NULL,NULL,NULL,"2020",14,38,60,47,58,66,56,35,0,0,0,0,0,0,0,0,0,"2021"
38.903759,-76.99724835,"J.O. Wilson Elementary School","6","ES",48,62,67,74,66,71,64,57,0,0,0,0,0,0,0,0,0,"2017",49,56,59,59,69,62,62,61,NULL,NULL,NULL,NULL,NULL,NULL,NULL,NULL,NULL,"2018",51,57,53,55,54,54,60,63,NULL,NULL,NULL,NULL,NULL,NULL,NULL,NULL,NULL,"2019",51,57,53,55,54,54,60,63,NULL,NULL,NULL,NULL,NULL,NULL,NULL,NULL,NULL,"2020",44,59,56,51,52,52,60,50,0,0,0,0,0,0,0,0,0,"2021"
38.9477895,-77.08101569,"Janney Elementary School","3","ES",0,60,128,105,104,122,105,113,0,0,0,0,0,0,0,0,0,"2017",NULL,60,111,133,107,110,119,99,NULL,NULL,NULL,NULL,NULL,NULL,NULL,NULL,NULL,"2018",NULL,58,93,103,103,122,105,97,NULL,NULL,NULL,NULL,NULL,NULL,NULL,NULL,NULL,"2019",NULL,58,93,103,103,122,105,97,NULL,NULL,NULL,NULL,NULL,NULL,NULL,NULL,NULL,"2020",0,77,92,93,106,98,113,93,0,0,0,0,0,0,0,0,0,"2021"
38.88088291,-77.02289372,"Jefferson Middle School Academy","6","MS",0,0,0,0,0,0,0,0,125,101,88,0,0,0,0,0,0,"2017",NULL,NULL,NULL,NULL,NULL,NULL,NULL,NULL,138,104,99,NULL,NULL,NULL,NULL,NULL,NULL,"2018",NULL,NULL,NULL,NULL,NULL,NULL,NULL,NULL,129,117,131,NULL,NULL,NULL,NULL,NULL,NULL,"2019",NULL,NULL,NULL,NULL,NULL,NULL,NULL,NULL,129,117,131,NULL,NULL,NULL,NULL,NULL,NULL,"2020",0,0,0,0,0,0,0,0,124,126,125,0,0,0,0,0,0,"2021"
38.85162847,-76.98388065,"Johnson Middle School","8","MS",0,0,0,0,0,0,0,0,96,77,82,0,0,0,0,0,0,"2017",NULL,NULL,NULL,NULL,NULL,NULL,NULL,NULL,102,97,76,NULL,NULL,NULL,NULL,NULL,NULL,"2018",NULL,NULL,NULL,NULL,NULL,NULL,NULL,NULL,110,116,128,NULL,NULL,NULL,NULL,NULL,NULL,"2019",NULL,NULL,NULL,NULL,NULL,NULL,NULL,NULL,110,116,128,NULL,NULL,NULL,NULL,NULL,NULL,"2020",0,0,0,0,0,0,0,0,111,106,101,0,0,0,0,0,0,"2021"
38.89430341,-76.93216654,"Kelly Miller Middle School","7","MS",0,0,0,0,0,0,0,0,124,127,136,0,0,0,0,0,0,"2017",NULL,NULL,NULL,NULL,NULL,NULL,NULL,NULL,205,138,139,NULL,NULL,NULL,NULL,NULL,NULL,"2018",NULL,NULL,NULL,NULL,NULL,NULL,NULL,NULL,139,157,203,NULL,NULL,NULL,NULL,NULL,NULL,"2019",NULL,NULL,NULL,NULL,NULL,NULL,NULL,NULL,139,157,203,NULL,NULL,NULL,NULL,NULL,NULL,"2020",0,0,0,0,0,0,0,0,128,124,148,0,0,0,0,0,0,"2021"
38.86698777,-76.98388013,"Ketcham Elementary School","8","ES",31,40,46,35,40,37,41,40,0,0,0,0,0,0,0,0,0,"2017",30,40,38,39,37,42,32,42,NULL,NULL,NULL,NULL,NULL,NULL,NULL,NULL,NULL,"2018",32,44,44,50,37,49,32,41,NULL,NULL,NULL,NULL,NULL,NULL,NULL,NULL,NULL,"2019",32,44,44,50,37,49,32,41,NULL,NULL,NULL,NULL,NULL,NULL,NULL,NULL,NULL,"2020",27,32,41,35,44,34,40,30,0,0,0,0,0,0,0,0,0,"2021"
38.92770299,-77.10051422,"Key Elementary School","3","ES",0,40,81,56,74,68,52,46,0,0,0,0,0,0,0,0,0,"2017",NULL,40,59,79,57,67,52,45,NULL,NULL,NULL,NULL,NULL,NULL,NULL,NULL,NULL,"2018",NULL,36,53,56,56,60,44,41,NULL,NULL,NULL,NULL,NULL,NULL,NULL,NULL,NULL,"2019",NULL,36,53,56,56,60,44,41,NULL,NULL,NULL,NULL,NULL,NULL,NULL,NULL,NULL,"2020",0,37,40,44,50,52,61,35,0,0,0,0,0,0,0,0,0,"2021"
38.88377533,-76.95747099,"Kimball Elementary School","7","ES",25,33,38,47,38,53,56,35,0,0,0,0,0,0,0,0,0,"2017",28,35,37,48,49,34,60,52,NULL,NULL,NULL,NULL,NULL,NULL,NULL,NULL,NULL,"2018",28,37,44,45,52,62,49,56,NULL,NULL,NULL,NULL,NULL,NULL,NULL,NULL,NULL,"2019",28,37,44,45,52,62,49,56,NULL,NULL,NULL,NULL,NULL,NULL,NULL,NULL,NULL,"2020",37,37,63,50,41,55,66,51,0,0,0,0,0,0,0,0,0,"2021"
38.84329563,-76.99844943,"King Elementary School","8","ES",27,35,56,49,49,38,41,51,0,0,0,0,0,0,0,0,0,"2017",29,34,42,36,41,41,34,38,NULL,NULL,NULL,NULL,NULL,NULL,NULL,NULL,NULL,"2018",16,23,34,40,37,35,38,48,NULL,NULL,NULL,NULL,NULL,NULL,NULL,NULL,NULL,"2019",16,23,34,40,37,35,38,48,NULL,NULL,NULL,NULL,NULL,NULL,NULL,NULL,NULL,"2020",16,27,26,28,31,31,29,35,0,0,0,0,0,0,0,0,0,"2021"
38.87197256,-76.98010889,"Kramer Middle School","8","MS",0,0,0,0,0,0,0,0,62,67,65,0,0,0,0,0,0,"2017",NULL,NULL,NULL,NULL,NULL,NULL,NULL,NULL,71,74,63,NULL,NULL,NULL,NULL,NULL,NULL,"2018",NULL,NULL,NULL,NULL,NULL,NULL,NULL,NULL,87,75,74,NULL,NULL,NULL,NULL,NULL,NULL,"2019",NULL,NULL,NULL,NULL,NULL,NULL,NULL,NULL,87,75,74,NULL,NULL,NULL,NULL,NULL,NULL,"2020",0,0,0,0,0,0,0,0,99,87,86,0,0,0,0,0,0,"2021"
38.96757468,-77.06752572,"Lafayette Elementary School","4","ES",0,97,141,139,117,127,89,106,0,0,0,0,0,0,0,0,0,"2017",NULL,99,162,153,138,118,130,87,NULL,NULL,NULL,NULL,NULL,NULL,NULL,NULL,NULL,"2018",NULL,70,120,151,154,160,137,110,NULL,NULL,NULL,NULL,NULL,NULL,NULL,NULL,NULL,"2019",NULL,70,120,151,154,160,137,110,NULL,NULL,NULL,NULL,NULL,NULL,NULL,NULL,NULL,"2020",0,55,142,124,149,135,139,116,0,0,0,0,0,0,0,0,0,"2021"
38.92557436,-76.97687337,"Langdon Elementary School","5","ES",39,40,50,34,44,42,33,42,0,0,0,0,0,0,0,0,0,"2017",36,39,53,50,40,54,47,34,NULL,NULL,NULL,NULL,NULL,NULL,NULL,NULL,NULL,"2018",44,42,45,53,45,46,38,45,NULL,NULL,NULL,NULL,NULL,NULL,NULL,NULL,NULL,"2019",44,42,45,53,45,46,38,45,NULL,NULL,NULL,NULL,NULL,NULL,NULL,NULL,NULL,"2020",36,44,51,41,49,42,47,38,0,0,0,0,0,0,0,0,0,"2021"
38.9155176,-77.00601875,"Langley Elementary School","5","ES",41,26,39,20,32,35,34,48,0,0,0,0,0,0,0,0,0,"2017",43,44,31,40,25,34,40,33,NULL,NULL,NULL,NULL,NULL,NULL,NULL,NULL,NULL,"2018",48,48,37,44,24,42,27,45,NULL,NULL,NULL,NULL,NULL,NULL,NULL,NULL,NULL,"2019",48,48,37,44,24,42,27,45,NULL,NULL,NULL,NULL,NULL,NULL,NULL,NULL,NULL,"2020",41,43,44,36,40,25,44,30,0,0,0,0,0,0,0,0,0,"2021"
38.96030337,-76.99997508,"LaSalle-Backus Elementary School","4","ES",23,25,43,33,29,28,32,33,42,39,36,0,0,0,0,0,0,"2017",23,29,36,38,33,41,26,34,39,42,41,NULL,NULL,NULL,NULL,NULL,NULL,"2018",21,28,30,31,34,38,31,33,NULL,NULL,40,NULL,NULL,NULL,NULL,NULL,NULL,"2019",21,28,30,31,34,38,31,33,NULL,NULL,40,NULL,NULL,NULL,NULL,NULL,NULL,"2020",31,29,35,29,33,27,37,31,0,0,0,0,0,0,0,0,0,"2021"
38.87363759,-76.97408068,"Leckie Education Campus","8","Mixed Campus",42,57,65,68,62,60,58,50,35,31,30,0,0,0,0,0,0,"2017",45,53,64,60,56,56,61,47,37,28,22,NULL,NULL,NULL,NULL,NULL,NULL,"2018",14,41,47,47,47,41,56,37,46,30,29,NULL,NULL,NULL,NULL,NULL,NULL,"2019",14,41,47,47,47,41,56,37,46,30,29,NULL,NULL,NULL,NULL,NULL,NULL,"2020",28,23,33,45,44,51,37,48,38,41,26,0,0,0,0,0,0,"2021"
38.89874518,-76.99674807,"Ludlow-Taylor Elementary School","6","ES",47,62,58,62,37,56,49,43,0,0,0,0,0,0,0,0,0,"2017",45,63,61,61,59,41,58,51,NULL,NULL,NULL,NULL,NULL,NULL,NULL,NULL,NULL,"2018",44,55,66,61,61,58,56,36,NULL,NULL,NULL,NULL,NULL,NULL,NULL,NULL,NULL,"2019",44,55,66,61,61,58,56,36,NULL,NULL,NULL,NULL,NULL,NULL,NULL,NULL,NULL,"2020",43,53,65,65,59,57,52,46,0,0,0,0,0,0,0,0,0,"2021"
38.89945505,-76.99690937,"Luke C. Moore High School","5","HS",0,0,0,0,0,0,0,0,0,0,0,66,64,63,58,0,0,"2017",NULL,NULL,NULL,NULL,NULL,NULL,NULL,NULL,NULL,NULL,NULL,51,85,69,83,NULL,NULL,"2018",NULL,NULL,NULL,NULL,NULL,NULL,NULL,NULL,NULL,NULL,NULL,53,50,50,55,NULL,NULL,"2019",NULL,NULL,NULL,NULL,NULL,NULL,NULL,NULL,NULL,NULL,NULL,53,50,50,55,NULL,NULL,"2020",0,0,0,0,0,0,0,0,0,0,0,51,37,36,30,0,1,"2021"
38.94374804,-77.02793202,"MacFarland Middle School","4","MS",0,0,0,0,0,0,0,0,62,70,0,0,0,0,0,0,0,"2017",NULL,NULL,NULL,NULL,NULL,NULL,NULL,NULL,210,73,71,NULL,NULL,NULL,NULL,NULL,NULL,"2018",NULL,NULL,NULL,NULL,NULL,NULL,NULL,NULL,180,239,229,NULL,NULL,NULL,NULL,NULL,NULL,"2019",NULL,NULL,NULL,NULL,NULL,NULL,NULL,NULL,180,239,229,NULL,NULL,NULL,NULL,NULL,NULL,"2020",0,0,0,0,0,0,0,0,187,186,255,0,0,0,0,0,0,"2021"
38.84183648,-76.98356886,"Malcolm X Elementary School @ Green","8","ES",27,31,36,33,33,38,28,30,0,0,0,0,0,0,0,0,0,"2017",26,27,31,27,35,30,35,31,NULL,NULL,NULL,NULL,NULL,NULL,NULL,NULL,NULL,"2018",9,28,29,26,30,24,39,31,NULL,NULL,NULL,NULL,NULL,NULL,NULL,NULL,NULL,"2019",9,28,29,26,30,24,39,31,NULL,NULL,NULL,NULL,NULL,NULL,NULL,NULL,NULL,"2020",19,13,33,22,18,28,26,36,0,0,0,0,0,0,0,0,0,"2021"
38.93427951,-77.08741546,"Mann Elementary School","3","ES",0,40,63,67,73,59,50,48,0,0,0,0,0,0,0,0,0,"2017",NULL,40,56,64,70,68,56,43,NULL,NULL,NULL,NULL,NULL,NULL,NULL,NULL,NULL,"2018",NULL,36,59,74,57,58,57,53,NULL,NULL,NULL,NULL,NULL,NULL,NULL,NULL,NULL,"2019",NULL,36,59,74,57,58,57,53,NULL,NULL,NULL,NULL,NULL,NULL,NULL,NULL,NULL,"2020",0,40,55,54,68,51,50,48,0,0,0,0,0,0,0,0,0,"2021"
38.91898378,-77.04067695,"Marie Reed Elementary School","1","ES",48,53,61,55,62,47,54,47,0,0,0,0,0,0,0,0,0,"2017",46,54,65,59,59,55,46,53,NULL,NULL,NULL,NULL,NULL,NULL,NULL,NULL,NULL,"2018",46,53,56,59,56,70,58,59,NULL,NULL,NULL,NULL,NULL,NULL,NULL,NULL,NULL,"2019",46,53,56,59,56,70,58,59,NULL,NULL,NULL,NULL,NULL,NULL,NULL,NULL,NULL,"2020",43,54,55,54,58,55,68,54,0,0,0,0,0,0,0,0,0,"2021"
38.89236521,-76.98867968,"Maury Elementary School","6","ES",39,47,64,62,54,52,48,41,0,0,0,0,0,0,0,0,0,"2017",39,46,67,64,59,52,48,32,NULL,NULL,NULL,NULL,NULL,NULL,NULL,NULL,NULL,"2018",38,46,78,82,75,65,63,45,NULL,NULL,NULL,NULL,NULL,NULL,NULL,NULL,NULL,"2019",38,46,78,82,75,65,63,45,NULL,NULL,NULL,NULL,NULL,NULL,NULL,NULL,NULL,"2020",37,49,80,81,81,83,67,40,0,0,0,0,0,0,0,0,0,"2021"
38.89341962,-76.98878139,"McKinley Middle School","5","MS",0,0,0,0,0,0,0,0,76,92,73,0,0,0,0,0,0,"2017",NULL,NULL,NULL,NULL,NULL,NULL,NULL,NULL,67,72,92,NULL,NULL,NULL,NULL,NULL,NULL,"2018",NULL,NULL,NULL,NULL,NULL,NULL,NULL,NULL,88,99,95,NULL,NULL,NULL,NULL,NULL,NULL,"2019",NULL,NULL,NULL,NULL,NULL,NULL,NULL,NULL,88,99,95,NULL,NULL,NULL,NULL,NULL,NULL,"2020",0,0,0,0,0,0,0,0,92,90,95,0,0,0,0,0,0,"2021"
38.91483971,-77.00551552,"McKinley Technology High School","5","HS",0,0,0,0,0,0,0,0,0,0,0,190,142,148,140,0,0,"2017",NULL,NULL,NULL,NULL,NULL,NULL,NULL,NULL,NULL,NULL,NULL,192,169,133,139,NULL,NULL,"2018",NULL,NULL,NULL,NULL,NULL,NULL,NULL,NULL,NULL,NULL,NULL,193,183,167,153,NULL,NULL,"2019",NULL,NULL,NULL,NULL,NULL,NULL,NULL,NULL,NULL,NULL,NULL,193,183,167,153,NULL,NULL,"2020",0,0,0,0,0,0,0,0,0,0,0,210,161,167,153,0,0,"2021"
38.96317087,-77.03234042,"Miner Elementary School","6","ES",46,50,51,36,41,38,43,40,0,0,0,0,0,0,0,0,0,"2017",69,44,48,44,38,38,37,43,NULL,NULL,NULL,NULL,NULL,NULL,NULL,NULL,NULL,"2018",48,69,54,43,55,45,49,36,NULL,NULL,NULL,NULL,NULL,NULL,NULL,NULL,NULL,"2019",48,69,54,43,55,45,49,36,NULL,NULL,NULL,NULL,NULL,NULL,NULL,NULL,NULL,"2020",44,52,56,43,43,45,49,44,0,0,0,0,0,0,0,0,0,"2021"
38.86818851,-76.98173808,"Moten Elementary School","8","ES",40,41,49,60,48,63,53,47,0,0,0,0,0,0,0,0,0,"2017",24,37,38,38,49,42,50,45,NULL,NULL,NULL,NULL,NULL,NULL,NULL,NULL,NULL,"2018",18,37,27,27,29,31,39,32,NULL,NULL,NULL,NULL,NULL,NULL,NULL,NULL,NULL,"2019",18,37,27,27,29,31,39,32,NULL,NULL,NULL,NULL,NULL,NULL,NULL,NULL,NULL,"2020",20,29,28,27,26,24,24,34,0,0,0,0,0,0,0,0,0,"2021"
38.952563,-77.07054143,"Murch Elementary School","3","ES",0,60,73,87,84,87,91,91,0,0,0,0,0,0,0,0,0,"2017",NULL,57,87,83,94,88,97,95,NULL,NULL,NULL,NULL,NULL,NULL,NULL,NULL,NULL,"2018",NULL,60,94,82,93,88,92,88,NULL,NULL,NULL,NULL,NULL,NULL,NULL,NULL,NULL,"2019",NULL,60,94,82,93,88,92,88,NULL,NULL,NULL,NULL,NULL,NULL,NULL,NULL,NULL,"2020",0,57,93,85,85,90,99,92,0,0,0,0,0,0,0,0,0,"2021"
38.8862118,-76.93067278,"Nalle Elementary School","7","ES",41,49,45,53,58,37,55,49,0,0,0,0,0,0,0,0,0,"2017",45,52,44,45,50,44,34,56,NULL,NULL,NULL,NULL,NULL,NULL,NULL,NULL,NULL,"2018",29,33,41,38,37,44,48,43,NULL,NULL,NULL,NULL,NULL,NULL,NULL,NULL,NULL,"2019",29,33,41,38,37,44,48,43,NULL,NULL,NULL,NULL,NULL,NULL,NULL,NULL,NULL,"2020",34,31,36,39,34,34,46,41,0,0,0,0,0,0,0,0,0,"2021"
38.92532415,-76.99211362,"Noyes Elementary School","5","ES",18,21,31,29,24,25,31,16,0,0,0,0,0,0,0,0,0,"2017",16,30,31,31,33,23,26,34,NULL,NULL,NULL,NULL,NULL,NULL,NULL,NULL,NULL,"2018",19,30,22,30,28,23,35,26,NULL,NULL,NULL,NULL,NULL,NULL,NULL,NULL,NULL,"2019",19,30,22,30,28,23,35,26,NULL,NULL,NULL,NULL,NULL,NULL,NULL,NULL,NULL,"2020",20,24,57,21,40,31,27,36,0,0,0,0,0,0,0,0,0,"2021"
38.8740895,-76.97457599,"Lawrence E. Boone Elementary School","8","ES",39,51,49,60,57,46,48,54,0,0,0,0,0,0,0,0,0,"2017",46,56,56,55,56,61,51,49,NULL,NULL,NULL,NULL,NULL,NULL,NULL,NULL,NULL,"2018",41,53,57,59,66,47,55,57,NULL,NULL,NULL,NULL,NULL,NULL,NULL,NULL,NULL,"2019",41,53,57,59,66,47,55,57,NULL,NULL,NULL,NULL,NULL,NULL,NULL,NULL,NULL,"2020",35,59,61,56,49,64,47,53,0,0,0,0,0,0,0,0,0,"2021"
38.92371699,-77.05739793,"Oyster-Adams Bilingual School","3","Mixed Campus",4,37,76,69,81,63,70,73,70,68,66,0,0,0,0,0,0,"2017",5,40,76,89,74,79,65,71,70,68,69,NULL,NULL,NULL,NULL,NULL,NULL,"2018",4,40,78,89,84,83,72,77,75,72,63,NULL,NULL,NULL,NULL,NULL,NULL,"2019",4,40,78,89,84,83,72,77,75,72,63,NULL,NULL,NULL,NULL,NULL,NULL,"2020",0,40,84,89,88,80,75,72,71,73,68,0,0,0,0,0,0,"2021"
38.82692514,-77.00846999,"Patterson Elementary School","8","ES",30,49,53,50,47,50,42,53,0,0,0,0,0,0,0,0,0,"2017",33,41,52,60,58,45,55,42,NULL,NULL,NULL,NULL,NULL,NULL,NULL,NULL,NULL,"2018",20,37,37,41,43,40,49,46,NULL,NULL,NULL,NULL,NULL,NULL,NULL,NULL,NULL,"2019",20,37,37,41,43,40,49,46,NULL,NULL,NULL,NULL,NULL,NULL,NULL,NULL,NULL,"2020",21,32,38,38,33,35,40,41,0,0,0,0,0,0,0,0,0,"2021"
38.88517722,-76.98471503,"Payne Elementary School","6","ES",38,34,41,45,34,42,42,39,0,0,0,0,0,0,0,0,0,"2017",46,41,37,48,41,47,44,42,NULL,NULL,NULL,NULL,NULL,NULL,NULL,NULL,NULL,"2018",43,37,41,48,39,48,26,37,NULL,NULL,NULL,NULL,NULL,NULL,NULL,NULL,NULL,"2019",43,37,41,48,39,48,26,37,NULL,NULL,NULL,NULL,NULL,NULL,NULL,NULL,NULL,"2020",36,38,34,31,47,38,45,23,0,0,0,0,0,0,0,0,0,"2021"
38.88542127,-76.98500149,"Peabody Elementary School (Capitol Hill Cluster)","6","ES",60,80,87,0,0,0,0,0,0,0,0,0,0,0,0,0,0,"2017",58,81,87,NULL,NULL,NULL,NULL,NULL,NULL,NULL,NULL,NULL,NULL,NULL,NULL,NULL,NULL,"2018",61,79,78,NULL,NULL,NULL,NULL,NULL,NULL,NULL,NULL,NULL,NULL,NULL,NULL,NULL,NULL,"2019",61,79,78,NULL,NULL,NULL,NULL,NULL,NULL,NULL,NULL,NULL,NULL,NULL,NULL,NULL,NULL,"2020",55,78,77,0,0,0,0,0,0,0,0,0,0,0,0,0,0,"2021"
38.89354741,-77.00007132,"Phelps Architecture, Construction and Engineering High
School","5","HS",0,0,0,0,0,0,0,0,0,0,0,71,72,53,64,0,0,"2017",NULL,NULL,NULL,NULL,NULL,NULL,NULL,NULL,NULL,NULL,NULL,85,65,65,50,NULL,NULL,"2018",NULL,NULL,NULL,NULL,NULL,NULL,NULL,NULL,NULL,NULL,NULL,107,75,54,40,NULL,NULL,"2019",NULL,NULL,NULL,NULL,NULL,NULL,NULL,NULL,NULL,NULL,NULL,107,75,54,40,NULL,NULL,"2020",0,0,0,0,0,0,0,0,0,0,0,126,91,55,48,0,0,"2021"
38.88761709,-76.94001422,"Plummer Elementary School","7","ES",28,39,47,51,55,47,59,49,0,0,0,0,0,0,0,0,0,"2017",26,39,32,39,48,44,49,54,NULL,NULL,NULL,NULL,NULL,NULL,NULL,NULL,NULL,"2018",23,37,27,24,31,27,40,44,NULL,NULL,NULL,NULL,NULL,NULL,NULL,NULL,NULL,"2019",23,37,27,24,31,27,40,44,NULL,NULL,NULL,NULL,NULL,NULL,NULL,NULL,NULL,"2020",27,37,28,29,27,26,28,37,0,0,0,0,0,0,0,0,0,"2021"
38.94192956,-77.03166865,"Powell Elementary School","4","ES",44,53,74,75,79,74,78,71,0,0,0,0,0,0,0,0,0,"2017",47,44,82,75,67,83,71,66,NULL,NULL,NULL,NULL,NULL,NULL,NULL,NULL,NULL,"2018",39,40,82,82,75,69,58,72,NULL,NULL,NULL,NULL,NULL,NULL,NULL,NULL,NULL,"2019",39,40,82,82,75,69,58,72,NULL,NULL,NULL,NULL,NULL,NULL,NULL,NULL,NULL,"2020",36,40,78,79,73,67,66,53,0,0,0,0,0,0,0,0,0,"2021"
38.87029434,-76.96386774,"Randle Highlands Elementary School","7","ES",34,46,35,43,44,48,32,43,0,0,0,0,0,0,0,0,0,"2017",34,47,44,38,44,43,42,37,NULL,NULL,NULL,NULL,NULL,NULL,NULL,NULL,NULL,"2018",27,39,41,50,38,38,43,42,NULL,NULL,NULL,NULL,NULL,NULL,NULL,NULL,NULL,"2019",27,39,41,50,38,38,43,42,NULL,NULL,NULL,NULL,NULL,NULL,NULL,NULL,NULL,"2020",24,30,38,36,40,35,37,40,0,0,0,0,0,0,0,0,0,"2021"
38.9502547,-77.02699061,"Raymond Elementary School","4","ES",41,58,76,66,48,56,57,53,39,52,43,0,0,0,0,0,0,"2017",46,58,67,75,54,53,58,51,NULL,37,59,NULL,NULL,NULL,NULL,NULL,NULL,"2018",30,57,66,55,66,66,59,52,NULL,NULL,NULL,NULL,NULL,NULL,NULL,NULL,NULL,"2019",30,57,66,55,66,66,59,52,NULL,NULL,NULL,NULL,NULL,NULL,NULL,NULL,NULL,"2020",27,35,51,53,38,59,53,53,0,0,0,0,0,0,0,0,0,"2021"
38.89615778,-76.95765755,"Ron Brown College Preparatory High School","7","HS",0,0,0,0,0,0,0,0,0,0,0,115,94,0,0,0,0,"2017",NULL,NULL,NULL,NULL,NULL,NULL,NULL,NULL,NULL,NULL,NULL,127,72,62,NULL,NULL,NULL,"2018",NULL,NULL,NULL,NULL,NULL,NULL,NULL,NULL,NULL,NULL,NULL,64,56,56,40,NULL,NULL,"2019",NULL,NULL,NULL,NULL,NULL,NULL,NULL,NULL,NULL,NULL,NULL,64,56,56,40,NULL,NULL,"2020",0,0,0,0,0,0,0,0,0,0,0,74,36,39,52,0,0,"2021"
38.91267871,-77.03968184,"Ross Elementary School","2","ES",16,20,23,27,22,28,26,12,0,0,0,0,0,0,0,0,0,"2017",15,20,26,31,28,25,24,21,NULL,NULL,NULL,NULL,NULL,NULL,NULL,NULL,NULL,"2018",NULL,20,30,33,28,29,24,12,NULL,NULL,NULL,NULL,NULL,NULL,NULL,NULL,NULL,"2019",NULL,20,30,33,28,29,24,12,NULL,NULL,NULL,NULL,NULL,NULL,NULL,NULL,NULL,"2020",0,20,23,31,25,28,19,16,0,0,0,0,0,0,0,0,0,"2021"
38.86569581,-77.0085224,"Savoy Elementary School","8","ES",18,22,32,29,41,34,54,37,0,0,0,0,0,0,0,0,0,"2017",15,25,38,40,29,49,33,42,NULL,NULL,NULL,NULL,NULL,NULL,NULL,NULL,NULL,"2018",20,33,29,31,34,45,27,45,NULL,NULL,NULL,NULL,NULL,NULL,NULL,NULL,NULL,"2019",20,33,29,31,34,45,27,45,NULL,NULL,NULL,NULL,NULL,NULL,NULL,NULL,NULL,"2020",21,29,39,32,24,41,37,26,0,0,0,0,0,0,0,0,0,"2021"
38.9078714,-77.05225307,"School Without Walls @ Francis-Stevens","2","Mixed Campus",40,46,38,36,40,44,44,44,51,46,44,0,0,0,0,0,0,"2017",33,46,39,37,36,36,47,39,62,49,48,NULL,NULL,NULL,NULL,NULL,NULL,"2018",35,40,37,40,34,38,45,46,96,91,85,NULL,NULL,NULL,NULL,NULL,NULL,"2019",35,40,37,40,34,38,45,46,96,91,85,NULL,NULL,NULL,NULL,NULL,NULL,"2020",26,30,37,31,31,37,34,38,79,86,87,0,0,0,0,0,0,"2021"
38.90869761,-77.05234967,"School Without Walls High School","2","HS",0,0,0,0,0,0,0,0,0,0,0,155,140,142,155,0,0,"2017",NULL,NULL,NULL,NULL,NULL,NULL,NULL,NULL,NULL,NULL,NULL,152,146,146,148,NULL,NULL,"2018",NULL,NULL,NULL,NULL,NULL,NULL,NULL,NULL,NULL,NULL,NULL,156,152,151,141,NULL,NULL,"2019",NULL,NULL,NULL,NULL,NULL,NULL,NULL,NULL,NULL,NULL,NULL,156,152,151,141,NULL,NULL,"2020",0,0,0,0,0,0,0,0,0,0,0,157,143,152,145,0,0,"2021"
38.90106537,-76.97302439,"School-Within-School @ Goding","6","ES",29,41,44,43,45,42,42,22,0,0,0,0,0,0,0,0,0,"2017",35,42,44,48,42,44,43,15,NULL,NULL,NULL,NULL,NULL,NULL,NULL,NULL,NULL,"2018",34,44,48,46,47,41,43,12,NULL,NULL,NULL,NULL,NULL,NULL,NULL,NULL,NULL,"2019",34,44,48,46,47,41,43,12,NULL,NULL,NULL,NULL,NULL,NULL,NULL,NULL,NULL,"2020",29,47,47,48,45,45,42,18,0,0,0,0,0,0,0,0,0,"2021"
38.91071623,-77.0252067,"Seaton Elementary School","6","ES",44,48,54,44,52,52,47,30,0,0,0,0,0,0,0,0,0,"2017",46,51,52,52,48,51,51,39,NULL,NULL,NULL,NULL,NULL,NULL,NULL,NULL,NULL,"2018",41,51,47,45,43,49,43,48,NULL,NULL,NULL,NULL,NULL,NULL,NULL,NULL,NULL,"2019",41,51,47,45,43,49,43,48,NULL,NULL,NULL,NULL,NULL,NULL,NULL,NULL,NULL,"2020",42,54,45,40,45,41,41,41,0,0,0,0,0,0,0,0,0,"2021"
38.98488962,-77.03364347,"Shepherd Elementary School","4","ES",29,40,45,55,58,43,49,45,0,0,0,0,0,0,0,0,0,"2017",30,37,43,48,61,60,47,53,NULL,NULL,NULL,NULL,NULL,NULL,NULL,NULL,NULL,"2018",26,38,50,43,43,49,63,60,NULL,NULL,NULL,NULL,NULL,NULL,NULL,NULL,NULL,"2019",26,38,50,43,43,49,63,60,NULL,NULL,NULL,NULL,NULL,NULL,NULL,NULL,NULL,"2020",30,38,38,54,47,42,49,69,0,0,0,0,0,0,0,0,0,"2021"
38.83648601,-77.00020783,"Simon Elementary School","8","ES",20,25,31,39,32,38,38,51,0,0,0,0,0,0,0,0,0,"2017",20,23,29,34,36,35,36,28,NULL,NULL,NULL,NULL,NULL,NULL,NULL,NULL,NULL,"2018",11,23,31,29,31,27,41,41,NULL,NULL,NULL,NULL,NULL,NULL,NULL,NULL,NULL,"2019",11,23,31,29,31,27,41,41,NULL,NULL,NULL,NULL,NULL,NULL,NULL,NULL,NULL,"2020",15,26,29,29,27,30,30,37,0,0,0,0,0,0,0,0,0,"2021"
38.90113898,-76.9375253,"Smothers Elementary School","7","ES",32,44,36,39,21,28,31,21,0,0,0,0,0,0,0,0,0,"2017",29,38,42,30,29,22,28,31,NULL,NULL,NULL,NULL,NULL,NULL,NULL,NULL,NULL,"2018",15,32,29,34,28,26,24,22,NULL,NULL,NULL,NULL,NULL,NULL,NULL,NULL,NULL,"2019",15,32,29,34,28,26,24,22,NULL,NULL,NULL,NULL,NULL,NULL,NULL,NULL,NULL,"2020",21,17,28,30,25,27,23,24,0,0,0,0,0,0,0,0,0,"2021"
38.90888043,-76.94038689,"Sousa Middle School","7","MS",0,0,0,0,0,0,0,0,65,85,78,0,0,0,0,0,0,"2017",NULL,NULL,NULL,NULL,NULL,NULL,NULL,NULL,84,71,87,NULL,NULL,NULL,NULL,NULL,NULL,"2018",NULL,NULL,NULL,NULL,NULL,NULL,NULL,NULL,78,107,94,NULL,NULL,NULL,NULL,NULL,NULL,"2019",NULL,NULL,NULL,NULL,NULL,NULL,NULL,NULL,78,107,94,NULL,NULL,NULL,NULL,NULL,NULL,"2020",0,0,0,0,0,0,0,0,82,67,84,0,0,0,0,0,0,"2021"
38.88477951,-76.95289042,"Stanton Elementary School","8","ES",29,51,59,73,63,66,79,73,0,0,0,0,0,0,0,0,0,"2017",27,58,54,62,71,61,68,72,NULL,NULL,NULL,NULL,NULL,NULL,NULL,NULL,NULL,"2018",24,39,55,56,54,52,54,49,NULL,NULL,NULL,NULL,NULL,NULL,NULL,NULL,NULL,"2019",24,39,55,56,54,52,54,49,NULL,NULL,NULL,NULL,NULL,NULL,NULL,NULL,NULL,"2020",31,38,35,44,46,43,48,53,0,0,0,0,0,0,0,0,0,"2021"
38.92301118,-77.0790201,"Stoddert Elementary School","3","ES",0,20,80,79,71,76,64,48,0,0,0,0,0,0,0,0,0,"2017",NULL,20,82,82,74,75,79,51,NULL,NULL,NULL,NULL,NULL,NULL,NULL,NULL,NULL,"2018",NULL,18,55,74,72,71,76,62,NULL,NULL,NULL,NULL,NULL,NULL,NULL,NULL,NULL,"2019",NULL,18,55,74,72,71,76,62,NULL,NULL,NULL,NULL,NULL,NULL,NULL,NULL,NULL,"2020",0,19,85,68,67,75,66,65,0,0,0,0,0,0,0,0,0,"2021"
38.89705628,-77.00001302,"Stuart-Hobson Middle School (Capitol Hill Cluster)","6","MS",0,0,0,0,0,0,0,0,146,144,132,0,0,0,0,0,0,"2017",NULL,NULL,NULL,NULL,NULL,NULL,NULL,NULL,180,137,137,NULL,NULL,NULL,NULL,NULL,NULL,"2018",NULL,NULL,NULL,NULL,NULL,NULL,NULL,NULL,175,175,163,NULL,NULL,NULL,NULL,NULL,NULL,"2019",NULL,NULL,NULL,NULL,NULL,NULL,NULL,NULL,175,175,163,NULL,NULL,NULL,NULL,NULL,NULL,"2020",0,0,0,0,0,0,0,0,165,171,172,0,0,0,0,0,0,"2021"
38.97543635,-77.02317665,"Takoma Elementary School","4","ES",33,43,46,38,48,54,43,56,38,42,32,0,0,0,0,0,0,"2017",44,46,49,48,43,53,50,42,62,37,34,NULL,NULL,NULL,NULL,NULL,NULL,"2018",44,57,63,57,49,45,49,59,NULL,NULL,54,NULL,NULL,NULL,NULL,NULL,NULL,"2019",44,57,63,57,49,45,49,59,NULL,NULL,54,NULL,NULL,NULL,NULL,NULL,NULL,"2020",48,49,69,59,45,41,38,39,0,0,0,0,0,0,0,0,0,"2021"
38.90185974,-76.95195427,"Thomas Elementary School","7","ES",34,43,61,52,57,40,46,51,0,0,0,0,0,0,0,0,0,"2017",35,34,45,55,46,52,37,51,NULL,NULL,NULL,NULL,NULL,NULL,NULL,NULL,NULL,"2018",16,47,58,31,39,42,34,43,NULL,NULL,NULL,NULL,NULL,NULL,NULL,NULL,NULL,"2019",16,47,58,31,39,42,34,43,NULL,NULL,NULL,NULL,NULL,NULL,NULL,NULL,NULL,"2020",26,32,38,52,28,33,36,33,0,0,0,0,0,0,0,0,0,"2021"
38.90406982,-77.02829291,"Thomson Elementary School","2","ES",32,34,44,42,43,36,45,32,0,0,0,0,0,0,0,0,0,"2017",39,41,39,43,46,47,37,39,NULL,NULL,NULL,NULL,NULL,NULL,NULL,NULL,NULL,"2018",37,38,37,26,39,45,43,32,NULL,NULL,NULL,NULL,NULL,NULL,NULL,NULL,NULL,"2019",37,38,37,26,39,45,43,32,NULL,NULL,NULL,NULL,NULL,NULL,NULL,NULL,NULL,"2020",28,36,35,36,25,36,42,38,0,0,0,0,0,0,0,0,0,"2021"
38.95377373,-77.02477809,"Truesdell Elementary School","4","ES",44,56,64,67,66,77,73,75,68,57,51,0,0,0,0,0,0,"2017",44,57,56,57,69,57,80,67,NULL,69,53,NULL,NULL,NULL,NULL,NULL,NULL,"2018",41,59,67,68,56,61,67,51,NULL,NULL,NULL,NULL,NULL,NULL,NULL,NULL,NULL,"2019",41,59,67,68,56,61,67,51,NULL,NULL,NULL,NULL,NULL,NULL,NULL,NULL,NULL,"2020",48,55,65,59,64,49,47,61,0,0,0,0,0,0,0,0,0,"2021"
38.92939538,-77.02869689,"Tubman Elementary School","1","ES",26,44,86,84,83,59,90,63,0,0,0,0,0,0,0,0,0,"2017",37,38,85,88,77,73,59,91,NULL,NULL,NULL,NULL,NULL,NULL,NULL,NULL,NULL,"2018",29,39,74,74,85,79,75,76,NULL,NULL,NULL,NULL,NULL,NULL,NULL,NULL,NULL,"2019",29,39,74,74,85,79,75,76,NULL,NULL,NULL,NULL,NULL,NULL,NULL,NULL,NULL,"2020",31,36,85,67,80,80,77,73,0,0,0,0,0,0,0,0,0,"2021"
38.84781683,-76.98035206,"Turner Elementary School","8","ES",34,51,51,70,68,56,68,65,0,0,0,0,0,0,0,0,0,"2017",43,47,67,71,66,76,63,64,NULL,NULL,NULL,NULL,NULL,NULL,NULL,NULL,NULL,"2018",34,48,62,67,68,66,71,81,NULL,NULL,NULL,NULL,NULL,NULL,NULL,NULL,NULL,"2019",34,48,62,67,68,66,71,81,NULL,NULL,NULL,NULL,NULL,NULL,NULL,NULL,NULL,"2020",27,44,76,65,69,62,68,61,0,0,0,0,0,0,0,0,0,"2021"
38.88114896,-76.99239519,"Tyler Elementary School","6","ES",58,72,74,72,61,61,61,66,0,0,0,0,0,0,0,0,0,"2017",57,77,76,68,61,62,58,53,NULL,NULL,NULL,NULL,NULL,NULL,NULL,NULL,NULL,"2018",54,67,72,69,81,74,57,55,NULL,NULL,NULL,NULL,NULL,NULL,NULL,NULL,NULL,"2019",54,67,72,69,81,74,57,55,NULL,NULL,NULL,NULL,NULL,NULL,NULL,NULL,NULL,"2020",55,71,75,63,64,60,63,41,0,0,0,0,0,0,0,0,0,"2021"
38.88161524,-76.99225671,"Van Ness Elementary School","6","ES",34,48,43,56,34,0,0,0,0,0,0,0,0,0,0,0,0,"2017",36,38,51,45,62,38,NULL,NULL,NULL,NULL,NULL,NULL,NULL,NULL,NULL,NULL,NULL,"2018",29,40,55,56,56,40,54,39,NULL,NULL,NULL,NULL,NULL,NULL,NULL,NULL,NULL,"2019",29,40,55,56,56,40,54,39,NULL,NULL,NULL,NULL,NULL,NULL,NULL,NULL,NULL,"2020",29,40,44,63,51,51,43,50,0,0,0,0,0,0,0,0,0,"2021"
38.87766599,-76.99920422,"Walker-Jones Education Campus","6","Mixed Campus",37,47,41,52,48,40,51,36,24,28,31,0,0,0,0,0,0,"2017",28,33,48,30,38,51,31,39,34,25,27,NULL,NULL,NULL,NULL,NULL,NULL,"2018",26,34,29,36,45,28,37,45,39,45,25,NULL,NULL,NULL,NULL,NULL,NULL,"2019",26,34,29,36,45,28,37,45,39,45,25,NULL,NULL,NULL,NULL,NULL,NULL,"2020",14,35,37,28,34,47,30,42,38,36,46,0,0,0,0,0,0,"2021"
38.8833141,-76.98995647,"Watkins Elementary School (Capitol Hill Cluster)","6","ES",0,0,0,85,83,90,89,81,0,0,0,0,0,0,0,0,0,"2017",NULL,NULL,NULL,87,93,89,95,80,NULL,NULL,NULL,NULL,NULL,NULL,NULL,NULL,NULL,"2018",NULL,NULL,NULL,79,88,98,97,76,NULL,NULL,NULL,NULL,NULL,NULL,NULL,NULL,NULL,"2019",NULL,NULL,NULL,79,88,98,97,76,NULL,NULL,NULL,NULL,NULL,NULL,NULL,NULL,NULL,"2020",0,0,0,86,81,82,94,79,0,0,0,0,0,0,0,0,0,"2021"
38.88418402,-76.98974098,"West Elementary School","4","ES",29,31,27,32,30,35,46,29,30,17,24,0,0,0,0,0,0,"2017",34,38,32,34,34,41,36,47,NULL,23,17,NULL,NULL,NULL,NULL,NULL,NULL,"2018",24,56,43,44,36,33,43,38,NULL,NULL,NULL,NULL,NULL,NULL,NULL,NULL,NULL,"2019",24,56,43,44,36,33,43,38,NULL,NULL,NULL,NULL,NULL,NULL,NULL,NULL,NULL,"2020",41,55,65,44,43,38,40,45,0,0,0,0,0,0,0,0,0,"2021"
38.9041477,-76.98802602,"Wheatley Education Campus","5","Mixed Campus",31,35,40,21,28,25,45,29,28,24,18,0,0,0,0,0,0,"2017",27,29,43,26,24,23,28,33,30,24,25,NULL,NULL,NULL,NULL,NULL,NULL,"2018",18,29,40,30,35,25,17,23,32,27,26,NULL,NULL,NULL,NULL,NULL,NULL,"2019",18,29,40,30,35,25,17,23,32,27,26,NULL,NULL,NULL,NULL,NULL,NULL,"2020",26,30,35,37,35,34,29,19,28,32,30,0,0,0,0,0,0,"2021"
38.96598632,-77.01911382,"Whittier Elementary School","4","ES",26,30,35,30,38,32,35,33,22,22,22,0,0,0,0,0,0,"2017",27,30,37,39,34,31,27,38,37,24,27,NULL,NULL,NULL,NULL,NULL,NULL,"2018",27,37,36,38,37,44,39,28,2,NULL,36,NULL,NULL,NULL,NULL,NULL,NULL,"2019",27,37,36,38,37,44,39,28,2,NULL,36,NULL,NULL,NULL,NULL,NULL,NULL,"2020",35,40,51,41,46,32,52,39,0,0,0,0,0,0,0,0,0,"2021"
38.94988893,-77.07697762,"Woodrow Wilson High School","3","HS",0,0,0,0,0,0,0,0,0,0,0,585,418,423,399,0,4,"2017",NULL,NULL,NULL,NULL,NULL,NULL,NULL,NULL,NULL,NULL,NULL,480,476,415,418,NULL,7,"2018",NULL,NULL,NULL,NULL,NULL,NULL,NULL,NULL,NULL,NULL,NULL,593,508,420,421,NULL,9,"2019",NULL,NULL,NULL,NULL,NULL,NULL,NULL,NULL,NULL,NULL,NULL,593,508,420,421,NULL,9,"2020",0,0,0,0,0,0,0,0,0,0,0,646,521,468,415,0,12,"2021"
38.96730472,-77.01932759,"Ida B. Wells Middle School","4","MS",NULL,NULL,NULL,NULL,NULL,NULL,NULL,NULL,NULL,NULL,NULL,NULL,NULL,NULL,NULL,NULL,NULL,NULL,NULL,NULL,NULL,NULL,NULL,NULL,NULL,NULL,NULL,NULL,NULL,NULL,NULL,NULL,NULL,NULL,NULL,NULL,NULL,NULL,NULL,NULL,NULL,NULL,NULL,NULL,183,187,NULL,NULL,NULL,NULL,NULL,NULL,NULL,"2019",NULL,NULL,NULL,NULL,NULL,NULL,NULL,NULL,183,187,NULL,NULL,NULL,NULL,NULL,NULL,NULL,"2020",0,0,0,0,0,0,0,0,174,175,181,0,0,0,0,0,0,"2021"
38.85251968,-76.96975184,"Excel Academy","8","Mixed Campus",NULL,NULL,NULL,NULL,NULL,NULL,NULL,NULL,NULL,NULL,NULL,NULL,NULL,NULL,NULL,NULL,NULL,NULL,29,52,35,45,55,47,51,45,54,31,25,NULL,NULL,NULL,NULL,NULL,NULL,"2018",20,44,43,33,40,39,47,44,50,46,50,NULL,NULL,NULL,NULL,NULL,NULL,"2019",20,44,43,33,40,39,47,44,50,46,50,NULL,NULL,NULL,NULL,NULL,NULL,"2020",22,24,37,40,38,41,38,50,50,46,42,0,0,0,0,0,0,"2021"
38.91483971,-77.00551552,"Military Road Early Learning Center","4","Early Learning",NULL,NULL,NULL,NULL,NULL,NULL,NULL,NULL,NULL,NULL,NULL,NULL,NULL,NULL,NULL,NULL,NULL,NULL,NULL,NULL,NULL,NULL,NULL,NULL,NULL,NULL,NULL,NULL,NULL,NULL,NULL,NULL,NULL,NULL,NULL,NULL,NULL,NULL,NULL,NULL,NULL,NULL,NULL,NULL,NULL,NULL,NULL,NULL,NULL,NULL,NULL,NULL,NULL,NULL,NULL,NULL,NULL,NULL,NULL,NULL,NULL,NULL,NULL,NULL,NULL,NULL,NULL,NULL,NULL,NULL,NULL,NULL,28,17,0,0,0,0,0,0,0,0,0,0,0,0,0,0,0,"2021"
38.8799072,-76.93743155,"Bard High School Early College DC (Bard DC)","7","HS",NULL,NULL,NULL,NULL,NULL,NULL,NULL,NULL,NULL,NULL,NULL,NULL,NULL,NULL,NULL,NULL,NULL,NULL,NULL,NULL,NULL,NULL,NULL,NULL,NULL,NULL,NULL,NULL,NULL,NULL,NULL,NULL,NULL,NULL,NULL,NULL,NULL,NULL,NULL,NULL,NULL,NULL,NULL,NULL,NULL,NULL,NULL,123,122,5,15,NULL,NULL,"2019",NULL,NULL,NULL,NULL,NULL,NULL,NULL,NULL,NULL,NULL,NULL,123,122,5,15,NULL,NULL,"2020",0,0,0,0,0,0,0,0,0,0,0,151,94,124,8,0,0,"2021"
38.90337751,-77.04676592,"Thaddeus Stevens Early Learning Center","2","Early Learning",NULL,NULL,NULL,NULL,NULL,NULL,NULL,NULL,NULL,NULL,NULL,NULL,NULL,NULL,NULL,NULL,NULL,NULL,NULL,NULL,NULL,NULL,NULL,NULL,NULL,NULL,NULL,NULL,NULL,NULL,NULL,NULL,NULL,NULL,NULL,NULL,50,29,NULL,NULL,NULL,NULL,NULL,NULL,NULL,NULL,NULL,NULL,NULL,NULL,NULL,NULL,NULL,"2019",50,29,NULL,NULL,NULL,NULL,NULL,NULL,NULL,NULL,NULL,NULL,NULL,NULL,NULL,NULL,NULL,"2020",25,37,0,0,0,0,0,0,0,0,0,0,0,0,0,0,0,"2021"
